[
    {
        "lat": 25.033968,
        "lng": 121.564468,
        "label": "台北101",
        "date": "2025-01-29",
        "note": "台灣著名地標"
    },
    {
        "lat": 71.1113199,
        "lng": 25.823569,
        "label": "挪威北角",
        "date": "2024-10-1",
        "note": "陸地極北"
    },
    {
        "lat": 55.7558,
        "lng": 37.6173,
        "label": "莫斯科北角",
        "date": "2021",
        "note": ""
    },
     {
        "lat": 59.9343,
        "lng": 30.3351,
        "label": "聖彼得堡北角",
        "date": "2021",
        "note": ""
    },
     {
        "lat": 52.5200,
        "lng": 13.4050,
        "label": "柏林北角",
        "date": "2021",
        "note": ""
    },
    {
        "lat": 48.2082,
        "lng": 16.3738,
        "label": "維也納北角",
        "date": "2021",
        "note": ""
    },
    {
        "lat": 50.0755,
        "lng": 14.4378,
        "label": "布拉格北角",
        "date": "2021",
        "note": ""
    },
    {
        "lat": 21.0285,
        "lng": 105.8542,
        "label": "河內北角",
        "date": "2021",
        "note": ""
    },
    {
        "lat": 10.7769,
        "lng": 106.7009,
        "label": "胡志明市北角",
        "date": "2021",
        "note": ""
    },
    {
        "lat": 36.6171,
        "lng": 101.7782,
        "label": "青海西寧北角",
        "date": "2021",
        "note": ""
    },
    {
        "lat": 40.8518,
        "lng": 14.2681,
        "label": "拿坡里北角",
        "date": "2021",
        "note": ""
    },
    {
        "lat": 45.4408,
        "lng": 12.3155,
        "label": "威尼斯北角",
        "date": "2021",
        "note": ""
    },
    {
        "lat": 53.5511,
        "lng": 9.9937,
        "label": "漢堡北角",
        "date": "2021",
        "note": ""
    },
    {
        "lat": 55.9533,
        "lng": -3.1883,
        "label": "愛丁堡北角",
        "date": "2021",
        "note": ""
    },
    {
        "lat": -27.4698,
        "lng": 153.0251,
        "label": "布里斯班北角",
        "date": "2021",
        "note": ""
    },
    {
        "lat": 25.7617,
        "lng": -80.1918,
        "label": "邁阿密北角",
        "date": "2021",
        "note": ""
    },
      {
        "lat": 40.4168,
        "lng": -3.7038,
        "label": "馬德里",
        "date": "20 19",
        "note": "西班牙"
    },
    {
        "lat": 36.1408,
        "lng": -5.3536,
        "label": "直布羅陀",
        "date": "20 19",
        "note": "英屬地"
    },
    {
        "lat": 51.5074,
        "lng": -0.1278,
        "label": "倫敦",
        "date": "20 17",
        "note": "英國"
    },
    {
        "lat": 53.3498,
        "lng": -6.2603,
        "label": "都柏林",
        "date": "2017",
        "note": "愛爾蘭"
    },
    {
        "lat": 43.5528,
        "lng": 7.0174,
        "label": "坎城",
        "date": "2001",
        "note": ""
    },
    {
        "lat": 41.9028,
        "lng": 12.4964,
        "label": "羅馬",
        "date": "2003",
        "note": ""
    },
    {
        "lat": 45.4642,
        "lng": 9.1900,
        "label": "米蘭",
        "date": "20 03",
        "note": ""
    },
    {
        "lat": 40.1209,
        "lng": 9.0129,
        "label": "薩丁尼亞",
        "date": "20 02",
        "note": ""
    },
    {
        "lat": 41.3851,
        "lng": 2.1734,
        "label": "巴塞隆納",
        "date": "2024",
        "note": ""
    },
    {
        "lat": 34.3416,
        "lng": 108.9398,
        "label": "西安",
        "date": "2024",
        "note": ""
    },
    {
        "lat": 25.2048,
        "lng": 55.2708,
        "label": "杜拜",
        "date": "20 19",
        "note": ""
    },
     {
        "lat": 35.6895,
        "lng": 139.6917,
        "label": "東京",
        "date": "2024",
        "note": ""
    },
    {
        "lat": 22.3193,
        "lng": 114.1694,
        "label": "香港",
        "date": " 2017",
        "note": ""
    },
    {
        "lat": 22.1987,
        "lng": 113.5439,
        "label": "澳門",
        "date": " 2016",
        "note": ""
    },
    {
        "lat": 22.5431,
        "lng": 114.0579,
        "label": "深圳",
        "date": " 2018",
        "note": ""
    },
    {
        "lat": 37.5665,
        "lng": 126.9870,
        "label": "首爾",
        "date": "2024",
        "note": ""
    },
    {
        "lat": 43.0621,
        "lng": 141.3544,
        "label": "札幌",
        "date": " 2018",
        "note": ""
    },
    {
        "lat": 40.7128,
        "lng": -74.0060,
        "label": "紐約",
        "date": " 2015",
        "note": ""
    },
    {
        "lat": 48.8566,
        "lng": 2.3522,
        "label": "巴黎",
        "date": "2024",
        "note": ""
    },
    {
        "lat": 48.1351,
        "lng": 11.5820,
        "label": "慕尼黑",
        "date": "20 04",
        "note": ""
    },
    {
        "lat": -33.8688,
        "lng": 151.2093,
        "label": "雪梨",
        "date": "2006",
        "note": ""
    },
    {
        "lat": 21.3069,
        "lng": -157.8583,
        "label": "檀香山",
        "date": " 2017",
        "note": ""
    },
    {
        "lat": 34.0522,
        "lng": -118.2437,
        "label": "洛杉磯",
        "date": "20 07",
        "note": ""
    },
    {
        "lat": 39.9042,
        "lng": 116.4074,
        "label": "北京",
        "date": "2014",
        "note": ""
    },
    {
        "lat": 36.0611,
        "lng": 103.8343,
        "label": "蘭州",
        "date": "20 15",
        "note": ""
    },
    {
        "lat": 43.8256,
        "lng": 87.6168,
        "label": "烏魯木齊",
        "date": "20 15",
        "note": ""
    },
    {
        "lat": 39.7432,
        "lng": 98.5174,
        "label": "酒泉",
        "date": "20 15",
        "note": ""
    },
    {
        "lat": 30.2741,
        "lng": 120.1551,
        "label": "杭州",
        "date": "2024",
        "note": " EMBA"
    },
     {
        "lat": 40.2975,
        "lng": 116.0206,
        "label": "居庸關",
        "date": "2015",
        "note": ""
    },
     {
        "lat": 13.4125,
        "lng": 103.8670,
        "label": "吳哥窟",
        "date": "20",
        "note": "柬埔寨"
    },
    {
        "lat": 38.7223,
        "lng": -9.1393,
        "label": "里斯本",
        "date": "20",
        "note": "葡萄牙"
    },
    {
        "lat": 50.8503,
        "lng": 4.3517,
        "label": "布魯塞爾",
        "date": "20",
        "note": "比利時"
    },
    {
        "lat": 52.3678,
        "lng": 4.9041,
        "label": "阿姆斯特丹",
        "date": "20",
        "note": "荷蘭"
    },
    {
        "lat": 36.8722,
        "lng": 137.6689,
        "label": "黑部",
        "date": "20",
        "note": "日本"
    },
    {
        "lat": 36.5736,
        "lng": 137.5947,
        "label": "立山",
        "date": "20",
        "note": "日本"
    },
    {
        "lat": 36.5613,
        "lng": 136.6562,
        "label": "金澤",
        "date": "20",
        "note": "日本"
    },
    {
        "lat": 35.3606,
        "lng": 138.7274,
        "label": "富士山",
        "date": "20",
        "note": "日本"
    },
      {
        "lat": 24.50940,
        "lng": 118.11388,
        "label": "廈門市",
        "date": "2025-01-08",
        "note": "中國展覽"
    },
     {
        "lat": 31.24776,
        "lng": 121.46417,
        "label": "上海市",
        "date": "2024-03-28",
        "note": "拜訪明哲會友"
    },
     {
        "lat": 31.31541,
        "lng": 120.57647,
        "label": "蘇州市",
        "date": "2024-03-29",
        "note": "拜訪兒子"
    },
     {
        "lat": 70.625352,
        "lng": 25.302804,
        "label": "挪威北角住宿",
        "date": "2024-10-2",
        "note": "陸地極北住宿"
    },
     {
        "lat": 69.291954,
        "lng": 26.722035,
        "label": "芬蘭北方玻璃屋",
        "date": "2024-10-3",
        "note": "芬蘭北方住宿"
    },
     {
        "lat": 67.417591,
        "lng": 26.604685,
        "label": "芬蘭索丹",
        "date": "2024-10-4",
        "note": "芬蘭中北方住宿"
    },
     {
        "lat": 67.539750,
        "lng": 22.643621,
        "label": "瑞典PINETREE",
        "date": "2024-10-5",
        "note": "瑞典中北方住宿"
    },
     {
        "lat": 66.557399,
        "lng": 25.904724,
        "label": "芬蘭羅瓦涅米",
        "date": "2024-10-8",
        "note": "瑞典中北方住宿"
    },
     {
        "lat": 60.167256,
        "lng": 24.949818,
        "label": "芬蘭赫爾辛基",
        "date": "2024-10-9",
        "note": "芬蘭首都"
    },
     {
        "lat": 59.436113,
        "lng": 24.742047,
        "label": "塔林古城",
        "date": "2024-10-9",
        "note": "愛沙尼亞首都"
    },
    {
        "lat": 35.575931,
        "lng": 137.594406,
        "label": "妻籠宿",
        "date": "2025-03-22",
        "note": "日本最棒的散步古道"
    },
    {
        "lat": 36.237867,
        "lng": 137.970464,
        "label": "松本美術館",
        "date": "2025-03-22",
        "note": "草間彌生展覽"
    },
   {
        "lat": 36.238695,
        "lng": 137.970438,
        "label": "松本城",
        "date": "2025-03-22",
        "note": "日本長野十大名城"
    },
    {
        "lat": 36.231235,
        "lng": 137.967676,
        "label": "松本市車站",
        "date": "2025-03-22",
        "note": "日本長野線"
    },
    {
        "lat": 35.625209,
        "lng": 134.803695,
        "label": "城崎溫泉",
        "date": "2025-03-17",
        "note": "日本名湯城"
    },
    {
        "lat": 35.027232,
        "lng": 135.797275,
        "label": "京都銀閣寺",
        "date": "2025-03-19",
        "note": "日本十大名城"
    },
     {
        "lat": 34.956247,
        "lng": 135.756305,
        "label": "京都城南宮",
        "date": "2025-03-19",
        "note": "日本十大名城"
    },
    {
        "lat": 34.681790,
        "lng": 135.500398,
        "label": "大阪中之島",
        "date": "2025-03-15",
        "note": "日本古建築"
    },
    {
        "lat": 34.858668,
        "lng": 136.813069,
        "label": "名古屋",
        "date": "2025-03-23",
        "note": "日本中部工業大城"
    },
     {
        "lat": 35.126512,
        "lng": 136.907071,
        "label": "名古屋熱田神宮",
        "date": "2025-03-23",
        "note": "日本天皇名劍"
    },
      {
        "lat": 28.60927,
        "lng": 77.19180,
        "label": "印度新德里",
        "date": "2006-07-05",
        "note": "印度首都"
    },
      {
        "lat": 6.92194,
        "lng": 79.86289,
        "label": "可倫波",
        "date": "1999--",
        "note": "斯里蘭卡首都"
    },
     {
        "lat": 13.76266,
        "lng": 100.50151,
        "label": "曼谷",
        "date": "2005-12-16",
        "note": "泰國首都"
    },
     {
        "lat": 1.39082,
        "lng": 104.11727,
        "label": "新加坡",
        "date": "2016-3-31",
        "note": "新加坡首都"
    },
     {
        "lat": 3.13761,
        "lng": 101.71010,
        "label": "吉隆坡",
        "date": "2007-2-28",
        "note": "馬來西亞首都"
    },
    {
        "lat": 6.12686,
        "lng": 116.56670,
        "label": "神山",
        "date": "2024-09-06",
        "note": "東南亞最高峰"
    }, 
    {
        "lat": 35.274812,
        "lng": 136.255896,
        "label": "彥根城",
        "date": "2025-03-20",
        "note": "日本十大名城"
    },
     {
        "lat": 34.684374,
        "lng": 135.529752,
        "label": "大阪城",
        "date": "2025-03-18",
        "note": "日本名城"
    },
    {
        "lat": 35.126697,
        "lng": 136.100150,
        "label": "近江八幡",
        "date": "2025-03-20",
        "note": "日本古建築"
    }, 
   {
        "lat": 35.518912,
        "lng": 137.571373,
        "label": "馬籠宿",
        "date": "2025-03-21",
        "note": "日本古建築"
    }, 
    {
        "lat": 35.585204,
        "lng": 137.596261,
        "label": "妻籠宿",
        "date": "2025-03-21",
        "note": "日本古建築"
    }, 
    {
        "lat": 22.627278,
        "lng": 120.301435,
        "label": "高雄85大樓",
        "date": "2022-09-18",
        "note": "高雄著名地點"
    }
]
