[
    {
        "lat": 25.033968,
        "lng": 121.564468,
        "label": "台北101",
        "date": "2025-01-29",
        "note": "台灣著名地標"
    },
    {
        "lat": 71.1113199,
        "lng": 25.823569,
        "label": "挪威北角",
        "date": "2024-10-1",
        "note": "陸地極北"
    },
     {
        "lat": 70.625352,
        "lng": 25.302804,
        "label": "挪威北角住宿",
        "date": "2024-10-2",
        "note": "陸地極北住宿"
    },
     {
        "lat": 69.291954,
        "lng": 26.722035,
        "label": "芬蘭北方玻璃屋",
        "date": "2024-10-3",
        "note": "芬蘭北方住宿"
    },
     {
        "lat": 67.417591,
        "lng": 26.604685,
        "label": "芬蘭索丹",
        "date": "2024-10-4",
        "note": "芬蘭中北方住宿"
    },
     {
        "lat": 67.539750,
        "lng": 22.643621,
        "label": "瑞典PINETREE",
        "date": "2024-10-5",
        "note": "瑞典中北方住宿"
    },
     {
        "lat": 66.557399,
        "lng": 25.904724,
        "label": "芬蘭羅瓦涅米",
        "date": "2024-10-8",
        "note": "瑞典中北方住宿"
    },
     {
        "lat": 60.167256,
        "lng": 24.949818,
        "label": "芬蘭赫爾辛基",
        "date": "2024-10-9",
        "note": "芬蘭首都"
    },
     {
        "lat": 59.436113,
        "lng": 24.742047,
        "label": "塔林古城",
        "date": "2024-10-9",
        "note": "愛沙尼亞首都"
    },
    {
        "lat": 35.575931,
        "lng": 137.594406,
        "label": "妻籠宿",
        "date": "2025-03-22",
        "note": "日本最棒的散步古道"
    },
    {
        "lat": 36.237867,
        "lng": 137.970464,
        "label": "松本美術館",
        "date": "2025-03-22",
        "note": "草間彌生展覽"
    },
   {
        "lat": 36.238695,
        "lng": 137.970438,
        "label": "松本城",
        "date": "2025-03-22",
        "note": "日本長野十大名城"
    },
    {
        "lat": 36.231235,
        "lng": 137.967676,
        "label": "松本市車站",
        "date": "2025-03-22",
        "note": "日本長野線"
    },
    {
        "lat": 35.625209,
        "lng": 134.803695,
        "label": "城崎溫泉",
        "date": "2025-03-17",
        "note": "日本名湯城"
    },
    {
        "lat": 35.027232,
        "lng": 135.797275,
        "label": "京都銀閣寺",
        "date": "2025-03-19",
        "note": "日本十大名城"
    },
     {
        "lat": 34.956247,
        "lng": 135.756305,
        "label": "京都城南宮",
        "date": "2025-03-19",
        "note": "日本十大名城"
    },
    {
        "lat": 34.681790,
        "lng": 135.500398,
        "label": "大阪中之島",
        "date": "2025-03-15",
        "note": "日本古建築"
    },
    {
        "lat": 34.858668,
        "lng": 136.813069,
        "label": "名古屋",
        "date": "2025-03-23",
        "note": "日本中部工業大城"
    },
     {
        "lat": 34.858668,
        "lng": 136.813069,
        "label": "名古屋熱田神宮",
        "date": "2025-03-23",
        "note": "日本天皇名劍"
    },
     {
        "lat": 35.274812,
        "lng": 136.255896,
        "label": "彥根城",
        "date": "2025-03-20",
        "note": "日本十大名城"
    },
     {
        "lat": 34.684374,
        "lng": 135.100150,
        "label": "大阪城",
        "date": "2025-03-18",
        "note": "日本名城"
    },
    {
        "lat": 35.126697,
        "lng": 136.500398,
        "label": "近江八幡",
        "date": "2025-03-20",
        "note": "日本古建築"
    }, 
   {
        "lat": 35.518912,
        "lng": 137.571373,
        "label": "馬籠宿",
        "date": "2025-03-21",
        "note": "日本古建築"
    }, 
    {
        "lat": 35.585204,
        "lng": 137.596261,
        "label": "妻籠宿",
        "date": "2025-03-21",
        "note": "日本古建築"
    }, 
    {
        "lat": 22.627278,
        "lng": 120.301435,
        "label": "高雄85大樓",
        "date": "2022-09-18",
        "note": "高雄著名地點"
    }
]
